{
  "stores": [
    {
      "id": "1",
      "name": "é˜¿æ˜æ©Ÿè»Šè¡Œ",
      "type": "repair",
      "location": {
        "lat": 25.0330,
        "lng": 121.5654
      },
      "address": "å°åŒ—å¸‚å¤§å®‰å€ä¿¡ç¾©è·¯å››æ®µ123è™Ÿ",
      "phone": "02-2345-6789",
      "description": "å°ˆæ¥­æ©Ÿè»Šè²·è³£ã€ç¶­ä¿®ä¿é¤Šï¼Œè¶…é20å¹´ç¶“é©—",
      "openHours": "09:00-21:00",
      "rating": 4.5,
      "image": "https://images.unsplash.com/photo-1558618666-fcd25c85cd64?w=300",
      "services": ["ç¶­ä¿®", "ä¿é¤Š", "è²·è³£", "æ”¹è£"],
      "priceRange": "$$"
    },
    {
      "id": "2",
      "name": "Speed Coffee",
      "type": "cafe",
      "location": {
        "lat": 25.0518,
        "lng": 121.5347
      },
      "address": "å°åŒ—å¸‚ä¸­å±±å€å—äº¬æ±è·¯äºŒæ®µ456è™Ÿ",
      "phone": "02-2567-8901",
      "description": "é¨å£«å°ˆå±¬å’–å•¡å»³ï¼Œæä¾›åœè»Šä½å’Œå……é›»æœå‹™",
      "openHours": "07:00-22:00",
      "rating": 4.2,
      "image": "https://images.unsplash.com/photo-1501339847302-ac426a4a7cbb?w=300",
      "services": ["å’–å•¡", "è¼•é£Ÿ", "å……é›»", "åœè»Š"],
      "priceRange": "$"
    },
    {
      "id": "3",
      "name": "ä¸­æ²¹åŠ æ²¹ç«™ - å¿ å­ç«™",
      "type": "gas",
      "location": {
        "lat": 25.0417,
        "lng": 121.5431
      },
      "address": "å°åŒ—å¸‚å¤§å®‰å€å¿ å­æ±è·¯å››æ®µ789è™Ÿ",
      "phone": "02-2789-0123",
      "description": "æä¾›95ã€98ç„¡é‰›æ±½æ²¹åŠæŸ´æ²¹ï¼Œ24å°æ™‚æœå‹™",
      "openHours": "24å°æ™‚ç‡Ÿæ¥­",
      "rating": 4.0,
      "image": "https://images.unsplash.com/photo-1545558014-8692077e9b5c?w=300",
      "services": ["95æ±½æ²¹", "98æ±½æ²¹", "æŸ´æ²¹", "ä¾¿åˆ©å•†åº—"],
      "priceRange": "$"
    },
    {
      "id": "4",
      "name": "ä¸–è²¿åœè»Šå ´",
      "type": "parking",
      "location": {
        "lat": 25.0348,
        "lng": 121.5601
      },
      "address": "å°åŒ—å¸‚ä¿¡ç¾©å€ä¿¡ç¾©è·¯äº”æ®µ101è™Ÿ",
      "phone": "02-2345-0987",
      "description": "æ©Ÿè»Šåœè»Šæ¯å°æ™‚15å…ƒï¼Œå®‰å…¨ç›£æ§",
      "openHours": "06:00-24:00",
      "rating": 3.8,
      "image": "https://images.unsplash.com/photo-1506905925346-21bda4d32df4?w=300",
      "services": ["æ©Ÿè»Šåœè»Š", "ç›£æ§", "é®é›¨æ£š"],
      "priceRange": "$"
    },
    {
      "id": "5",
      "name": "å°ˆæ¥­è»Šé«”éˆ‘çƒ¤",
      "type": "repair",
      "location": {
        "lat": 25.0485,
        "lng": 121.5590
      },
      "address": "å°åŒ—å¸‚æ¾å±±å€å…«å¾·è·¯ä¸‰æ®µ234è™Ÿ",
      "phone": "02-2456-7890",
      "description": "æ©Ÿè»Šéˆ‘é‡‘ã€çƒ¤æ¼†ã€æ”¹è£å°ˆå®¶",
      "openHours": "08:00-18:00",
      "rating": 4.7,
      "image": "https://images.unsplash.com/photo-1487754180451-c456f719a1fc?w=300",
      "services": ["éˆ‘é‡‘", "çƒ¤æ¼†", "æ”¹è£", "å®¢è£½åŒ–"],
      "priceRange": "$$"
    },
    {
      "id": "6",
      "name": "Mountain View Cafe",
      "type": "cafe",
      "location": {
        "lat": 25.0445,
        "lng": 121.5445
      },
      "address": "å°åŒ—å¸‚å¤§å®‰å€å¾©èˆˆå—è·¯ä¸€æ®µ567è™Ÿ",
      "phone": "02-2678-9012",
      "description": "å±±æ™¯å’–å•¡å»³ï¼Œé¨å£«èšæœƒç†±é»",
      "openHours": "08:00-20:00",
      "rating": 4.3,
      "image": "https://images.unsplash.com/photo-1554118811-1e0d58224f24?w=300",
      "services": ["æ™¯è§€", "èšæœƒ", "wifi", "æˆ¶å¤–åº§ä½"],
      "priceRange": "$$"
    },
    {
      "id": "7",
      "name": "å°å¡‘åŠ æ²¹ç«™ - å¾©èˆˆç«™",
      "type": "gas",
      "location": {
        "lat": 25.0510,
        "lng": 121.5320
      },
      "address": "å°åŒ—å¸‚ä¸­å±±å€å¾©èˆˆåŒ—è·¯123è™Ÿ",
      "phone": "02-2890-1234",
      "description": "å„ªè³ªæ±½æŸ´æ²¹ã€æ©Ÿè»Šç”¨å“è²©å”®",
      "openHours": "24å°æ™‚ç‡Ÿæ¥­",
      "rating": 4.1,
      "image": "https://images.unsplash.com/photo-1545558014-8692077e9b5c?w=300",
      "services": ["æ±½æ²¹", "æŸ´æ²¹", "æ©Ÿæ²¹", "ç”¨å“è²©å”®"],
      "priceRange": "$"
    },
    {
      "id": "8",
      "name": "Biker's Restaurant",
      "type": "restaurant",
      "location": {
        "lat": 25.0380,
        "lng": 121.5680
      },
      "address": "å°åŒ—å¸‚ä¿¡ç¾©å€æ¾å£½è·¯11è™Ÿ",
      "phone": "02-2345-6789",
      "description": "é¨å£«ä¸»é¡Œé¤å»³ï¼Œæä¾›åœè»Šä½",
      "openHours": "11:00-23:00",
      "rating": 4.4,
      "image": "https://images.unsplash.com/photo-1517248135467-4c7edcad34c4?w=300",
      "services": ["é¤é£²", "åœè»Š", "èšæœƒ", "ä¸»é¡Œè£æ½¢"],
      "priceRange": "$$"
    },
    {
      "id": "9",
      "name": "æ©Ÿè»Šç”¨å“å¤§è³£å ´",
      "type": "shop",
      "location": {
        "lat": 25.0460,
        "lng": 121.5500
      },
      "address": "å°åŒ—å¸‚æ¾å±±å€å—äº¬æ±è·¯å››æ®µ888è™Ÿ",
      "phone": "02-2567-1234",
      "description": "å„å¼æ©Ÿè»Šç”¨å“ã€é…ä»¶ã€å®‰å…¨å¸½å°ˆè³£",
      "openHours": "09:00-21:00",
      "rating": 4.2,
      "image": "https://images.unsplash.com/photo-1558618666-fcd25c85cd64?w=300",
      "services": ["ç”¨å“è²©å”®", "å®‰å…¨å¸½", "é…ä»¶", "å®¢è£½æœå‹™"],
      "priceRange": "$$"
    },
    {
      "id": "10",
      "name": "è·¯é‚Šåœè»Šæ ¼",
      "type": "parking",
      "location": {
        "lat": 25.0400,
        "lng": 121.5550
      },
      "address": "å°åŒ—å¸‚å¤§å®‰å€ä»æ„›è·¯ä¸‰æ®µ",
      "phone": "",
      "description": "è·¯é‚Šä»˜è²»åœè»Šæ ¼ï¼Œæ©Ÿè»Šæ¯å°æ™‚10å…ƒ",
      "openHours": "24å°æ™‚é–‹æ”¾",
      "rating": 3.5,
      "image": "https://images.unsplash.com/photo-1506905925346-21bda4d32df4?w=300",
      "services": ["è·¯é‚Šåœè»Š", "è¨ˆæ™‚æ”¶è²»"],
      "priceRange": "$"
    }
  ],
  "categories": [
    {
      "id": "repair",
      "name": "ç¶­ä¿®åº—",
      "icon": "ğŸ”§",
      "color": "#ef4444"
    },
    {
      "id": "cafe",
      "name": "å’–å•¡å»³",
      "icon": "â˜•",
      "color": "#8b5cf6"
    },
    {
      "id": "gas",
      "name": "åŠ æ²¹ç«™",
      "icon": "â›½",
      "color": "#f59e0b"
    },
    {
      "id": "parking",
      "name": "åœè»Šå ´",
      "icon": "ğŸ…¿ï¸",
      "color": "#10b981"
    },
    {
      "id": "restaurant",
      "name": "é¤å»³",
      "icon": "ğŸ½ï¸",
      "color": "#f97316"
    },
    {
      "id": "shop",
      "name": "å•†åº—",
      "icon": "ğŸª",
      "color": "#06b6d4"
    }
  ]
} 